COMPETITOR_NAME,ADDRESS,LATITUDE,LONGITUDE,RATING,NUM_REVIEWS
Discount Tire,"1117 E Ogden Ave, Naperville, IL 60563, United States",41.7926083,-88.1285551,4.6,551
Mavis Tires & Brakes,"915 E Ogden Ave, Naperville, IL 60563, United States",41.7889369,-88.1336305,4.7,792
Car-X Tire & Auto,"1156 E Ogden Ave, Naperville, IL 60563, United States",41.7937364,-88.125836,4.5,197
Acorn Tire & Service,"275 E Ogden Ave, Naperville, IL 60540, United States",41.7862443,-88.1431402,4.7,577
Cassidy Tire and Service,"1580 W Ogden Ave, Naperville, IL 60540, United States",41.767295,-88.1853477,4.8,391
Acorn Tire & Service,"1580 N Aurora Rd, Naperville, IL 60563, United States",41.779235,-88.1870342,4.7,469
Midas,"800 E Ogden Ave, Naperville, IL 60563, United States",41.787212,-88.1343539,4.8,369
Discount Tire,"535 Fort Hill Dr, Naperville, IL 60540, United States",41.7636458,-88.1972836,4.4,575
Pep Boys,"2936 W Ogden Ave Suite 11, Naperville, IL 60540, United States",41.7532375,-88.2042595,3.8,585
Jiffy Lube,"922 E Ogden Ave, Naperville, IL 60563, United States",41.788791,-88.1325479,4.0,329
Alianza Complete Auto Repair,"1032 E Ogden Ave suite 112, Naperville, IL 60563, United States",41.7912064,-88.1292531,5.0,16
Mike More Miles Naperville,"920 E Ogden Ave, Naperville, IL 60563, United States",41.7886399,-88.1326656,4.9,210
V & R Tire & Alignment Specialists Inc,"4903 Main St, Lisle, IL 60532, United States",41.7970033,-88.0742559,4.7,88
Firestone Complete Auto Care,"2955 Ogden Ave, Lisle, IL 60532, United States",41.7960068,-88.1091134,3.8,231
Firestone Complete Auto Care,"44 W Gartner Rd, Naperville, IL 60540, United States",41.7545412,-88.1405028,3.7,120
Costco Tire Center,"1255 E Ogden Ave, Naperville, IL 60563, United States",41.7984343,-88.1236493,5.0,1
Cool Flow Automotive,"1340 W Ogden Ave Ste 2, Naperville, IL 60563, United States",41.780138,-88.1802232,4.9,46
Lisle Automotive & Tire,"1508 Ogden Ave, Lisle, IL 60532, United States",41.8009928,-88.0807314,4.8,75
Naper Auto Works Inc,"320 N Mill St, Naperville, IL 60540, United States",41.7792506,-88.1541353,4.6,148
Discount Tire,"1060 E Roosevelt Rd, Lombard, IL 60148, United States",41.861002,-87.9907055,4.4,1104
Dupage Tire & Auto Center Inc,"1200 E Roosevelt Rd, Lombard, IL 60148, United States",41.8608194,-87.9875197,4.9,375
Cassidy Tire and Service,"444 W Roosevelt Rd, Lombard, IL 60148, United States",41.8602195,-88.0266408,4.9,725
Alex Tire Shop,"611 N Addison Rd, Villa Park, IL 60181, United States",41.9016436,-87.9881103,4.4,68
Car-X Tire & Auto,"361 E N Ave, Villa Park, IL 60181, United States",41.905173,-87.9698477,4.8,465
Villa Park Auto Clinic,"299 E St Charles Rd, Villa Park, IL 60181, United States",41.8897491,-87.9718792,4.4,86
Just Tires,"236 Kingery Hwy, Elmhurst, IL 60126, United States",41.9043,-87.9656264,4.2,289
Firestone Complete Auto Care,"590 E Roosevelt Rd, Lombard, IL 60148, United States",41.8610659,-88.0029156,4.1,324
Pep Boys,"865 E Roosevelt Rd, Lombard, IL 60148, United States",41.859965,-87.996192,3.8,677
Mavis Tires & Brakes,"1800 E Roosevelt Rd, Wheaton, IL 60187, United States",41.8587962,-88.0817753,4.7,1129
Cassidy Tire and Service,"200 S Church St, Addison, IL 60101, United States",41.922203,-87.9916915,4.7,545
Kelly Tires Auto Center,"299 E St Charles Rd, Villa Park, IL 60181, United States",41.8898232,-87.9718163,4.2,6
Discount Tire,"1719 W Jefferson St, Joliet, IL 60435, United States",41.5230107,-88.1237386,4.3,717
Walmart Auto Care Centers,"2424 W Jefferson St, Joliet, IL 60435, United States",41.5187699,-88.141209,3.0,106
Pep Boys,"1824 W Jefferson St, Joliet, IL 60435, United States",41.521285,-88.127089,4.0,485
DK Tires & Rims,"935 W Jefferson St, Joliet, IL 60435, United States",41.5234374,-88.1059686,4.2,37
Pomp's Tire Service,"321 N, 321 Republic Ave, Joliet, IL 60435, United States",41.5285522,-88.1405258,4.4,59
Tire Tracks - Joliet on Republic Ave,"142 Republic Ave, Joliet, IL 60435, United States",41.5250435,-88.1387083,4.9,214
Crusader Customs,"2409 W Jefferson St, Joliet, IL 60435, United States",41.5226811,-88.1418645,4.8,351
MICKEY'S TIRE & SERVICE CENTER,"112 N Larkin Ave, Joliet, IL 60435, United States",41.5246463,-88.1242476,4.6,157
Brothers Tire Shop,"701 Plainfield Rd, Joliet, IL 60435, United States",41.5364864,-88.0991503,4.3,88
EL GUERO TIRE SHOP,"428 E Jackson St, Joliet, IL 60432, United States",41.5314356,-88.0708136,4.6,770
Ruby Street Tire Co,"701 Ruby St, Joliet, IL 60435, United States",41.5380266,-88.0994016,4.9,42
Wentworth Tire Service of Joliet,"1665 Terry Dr, Joliet, IL 60436, United States",41.491384,-88.1433353,4.8,39
Kronos Tire Shop,"111 Bissel St, Joliet, IL 60432, United States",41.5278282,-88.0618743,4.1,56
Sam's Club Tire & Battery,"321 S Larkin Ave, Joliet, IL 60436, United States",41.5156178,-88.1278932,4.9,12
Discount Tire,"2845 Plainfield Rd, Joliet, IL 60435, United States",41.5773185,-88.1577581,4.5,795
Wheel 2 Wheel LLC Joliet,"705 S Larkin Ave, Joliet, IL 60436, United States",41.5092295,-88.1258902,4.7,206
Tire Tracks - Joliet on Chicago St,"301 N Chicago St, Joliet, IL 60432, United States",41.5299837,-88.082182,4.9,345
Mr. Tire Inc,"1801 S Chicago St, Joliet, IL 60436, United States",41.4919423,-88.0811144,4.6,102
Mavis Tires & Brakes,"3350 Mall Loop Dr, Joliet, IL 60431, United States",41.5791568,-88.1653476,4.6,1159
Discount Tire,"2845 Plainfield Rd, Joliet, IL 60435, United States",41.5773185,-88.1577581,4.5,795
Mavis Tires & Brakes,"3350 Mall Loop Dr, Joliet, IL 60431, United States",41.5791568,-88.1653476,4.6,1159
Discount Tire,"1719 W Jefferson St, Joliet, IL 60435, United States",41.5230107,-88.1237386,4.3,717
Mavis Tires & Brakes,"1002 Brook Forest Ave, Shorewood, IL 60404, United States",41.5393596,-88.1986794,4.5,1210
Tire Tracks - Joliet on Republic Ave,"142 Republic Ave, Joliet, IL 60435, United States",41.5250435,-88.1387083,4.9,214
MICKEY'S TIRE & SERVICE CENTER,"112 N Larkin Ave, Joliet, IL 60435, United States",41.5246463,-88.1242476,4.6,157
Firestone Complete Auto Care,"2521 Plainfield Rd, Joliet, IL 60435, United States",41.5713287,-88.1490246,3.9,201
Orlando's Tire Shop,"2201 Plainfield Rd, Joliet, IL 60403, United States",41.56137,-88.136095,4.4,172
Joliet Tire & Auto,"1385 N Larkin Ave, Joliet, IL 60435, United States",41.5467977,-88.126224,4.9,177
Pep Boys,"1824 W Jefferson St, Joliet, IL 60435, United States",41.521285,-88.127089,4.0,485
Pomp's Tire Service,"321 N, 321 Republic Ave, Joliet, IL 60435, United States",41.5285522,-88.1405258,4.4,59
Tuffy Tire & Auto Service Center,"2031 Illinois Rte 59, Plainfield, IL 60586, United States",41.5593589,-88.2008452,4.7,235
Wheel 2 Wheel LLC Joliet,"705 S Larkin Ave, Joliet, IL 60436, United States",41.5092295,-88.1258902,4.7,206
Firestone Complete Auto Care,"601 Brook Forest Ave, Shorewood, IL 60404, United States",41.5328643,-88.1999464,3.7,297
FALKEN TIRE NORTH CENTRAL REGIONAL DC,"1515 Rock Creek Blvd, Joliet, IL 60431, United States",41.4939449,-88.1713845,4.0,44
Wentworth Tire Service of Joliet,"1665 Terry Dr, Joliet, IL 60436, United States",41.491384,-88.1433353,4.8,39
Crusader Customs,"2409 W Jefferson St, Joliet, IL 60435, United States",41.5226811,-88.1418645,4.8,351
Goodyear Commercial Tire & Service Centers,"18440 NW Frontage Rd, Shorewood, IL 60404, United States",41.5476293,-88.1810429,4.3,31
Broadway Tire Shop,"174 S Broadway, Aurora, IL 60505, United States",41.7532846,-88.3163334,4.5,154
Quint Tires & Wheels,"1320 Dearborn Ave, Aurora, IL 60505, United States",41.7675259,-88.2828739,4.6,181
Tire Express,"1247 E New York St, Aurora, IL 60505, United States",41.755151,-88.2842079,4.6,85
Maya's Tire Shop,"945 W Illinois Ave, Aurora, IL 60506, United States",41.7707349,-88.3380197,4.4,79
Herrera Tires & Wheels,"637 E Galena Blvd, Aurora, IL 60505, United States",41.7528923,-88.3019089,4.3,250
Paisano's tire shop,"55 Pierce St, Aurora, IL 60505, United States",41.7679674,-88.3070826,4.6,92
PQW Wheels & Tires,"225 W Galena Blvd, Aurora, IL 60506, United States",41.7603145,-88.3190461,4.4,70
Discount Tire,"2445 Augusta Way, Aurora, IL 60506, United States",41.789035,-88.376165,4.5,654
Chihuahua Tire Shop,"1201 Aurora Ave Ln, Aurora, IL 60505, United States",41.782669,-88.309876,3.5,353
Chihuahua Tire Shop,"120 E Indian Trail Rd, Aurora, IL 60505, United States",41.781436,-88.3112114,3.8,214
Gonzalez Tire Shop,"1247 E New York St, Aurora, IL 60505, United States",41.755151,-88.2842079,4.1,37
Pronto Tires,"244D S River St, Aurora, IL 60506, United States",41.7540258,-88.3229273,4.8,59
Benitez Tire Shop,"637 S River St, Aurora, IL 60506, United States",41.7478266,-88.3290735,4.8,19
Farnsworth Auto,"1175 N Farnsworth Ave, Aurora, IL 60505, United States",41.7812217,-88.2813564,4.8,610
Firestone Complete Auto Care,"2888 E New York St, Aurora, IL 60502, United States",41.7596861,-88.2444724,3.8,241
Tire Management,"481 NE Industrial Dr, Aurora, IL 60505, United States",41.7915899,-88.3042713,4.4,70
Commercial Tire Services,"300 NE Industrial Dr, Aurora, IL 60505, United States",41.7921663,-88.308331,4.8,59
Firestone Complete Auto Care,"401 S Lincolnway St, North Aurora, IL 60542, United States",41.7914711,-88.3218241,4.3,182
Firestone Complete Auto Care,"2789 N Farnsworth Ave, Aurora, IL 60502, United States",41.8120239,-88.2786902,3.7,192
Pomp's Tire Service,"1996 Greenfield Rd, Montgomery, IL 60538, United States",41.7283558,-88.3641813,4.7,50
Discount Tire,"9470 W 159th St, Orland Park, IL 60467, United States",41.6019221,-87.8495522,4.4,584
Firestone Complete Auto Care,"9280 W 159th St, Orland Park, IL 60462, United States",41.6018467,-87.8446308,4.1,174
Mavis Tires & Brakes,"76 Orland Square Dr, Orland Park, IL 60462, United States",41.619944,-87.8435817,4.7,841
Pep Boys,"15911 LaGrange Rd, Orland Park, IL 60467, United States",41.6006417,-87.8520924,3.9,446
De Re Tire & Auto,"8843 W 159th St, Orland Hills, IL 60487, United States",41.601051,-87.835715,4.8,107
Empire Tire and Battery Co,"16201 Wolf Rd, Orland Park, IL 60467, United States",41.5946358,-87.8901764,4.7,131
Tuffy Tire & Auto Service Center,"7900 W 159th St, Orland Park, IL 60462, United States",41.6024742,-87.8117523,4.5,209
Costco Tire Center,"9915 W 159th St, Orland Park, IL 60467, United States",41.5993803,-87.8617926,3.4,34
Jiffy Lube,"9254 W 159th St, Orland Park, IL 60462, United States",41.6019671,-87.8437399,4.2,341
Orland Best Services,"9268 W 159th St, Orland Park, IL 60462, United States",41.6025675,-87.8443683,4.7,72
Midas,"14810 LaGrange Rd, Orland Park, IL 60462, United States",41.620753,-87.8542174,4.7,324
VIP Tire Corporation,"7121 W 171st St, Tinley Park, IL 60477, United States",41.579856,-87.791716,4.5,163
Checkpoint Auto Electric and Repair,"9276 W 159th St, Orland Park, IL 60462, United States",41.6021775,-87.8447215,4.9,211
Midas,"7011 W 159th St, Tinley Park, IL 60477, United States",41.6019189,-87.7903798,4.5,269
De Re Tire & Auto,"5740 W 159th St, Oak Forest, IL 60452, United States",41.6031601,-87.7607273,4.7,142
Cooper Service,"16400 104th Ave, Orland Park, IL 60467, United States",41.5914664,-87.8723903,4.5,88
Firestone Complete Auto Care,"15930 Harlem Ave, Tinley Park, IL 60477, United States",41.601593,-87.7970504,4.1,228
Good Year,"8843 W 159th St, Orland Hills, IL 60487, United States",41.6010525,-87.8357774,5.0,2
Jiffy Lube,"137 W North Ave, West Chicago, IL 60185, United States",41.9158045,-88.2075116,4.5,260
Krage's Auto Center,"120 Roosevelt Rd, West Chicago, IL 60185, United States",41.8646012,-88.2037472,4.8,195
Christian Brothers Automotive West Chicago,"1650 N Neltnor Blvd, West Chicago, IL 60185, United States",41.9133449,-88.2089459,4.9,447
Chihuahua auto repair tires & rims inc,"375 Fenton Ln, West Chicago, IL 60185, United States",41.879817,-88.224787,4.2,267
Midas,"130 W Roosevelt Rd, West Chicago, IL 60185, United States",41.8651857,-88.2060662,4.4,89
Rite Way Automotive Service,"101 E Washington St, West Chicago, IL 60185, United States",41.8849516,-88.2046366,4.6,87
TS Specialties,"521 W Washington St, West Chicago, IL 60185, United States",41.8823635,-88.2157046,4.9,99
Frank's Automotive Repair,"927 W Washington St, West Chicago, IL 60185, United States",41.8811041,-88.2212697,4.8,169
K&Y Truck Repair LLC,"29W141 North Ave, West Chicago, IL 60185, United States",41.9115882,-88.1881253,4.8,31
Precision Lube & Auto,"1190 Joliet St, West Chicago, IL 60185, United States",41.8646194,-88.2053269,4.8,215
C & A Auto Repair,"123 N Aurora St, West Chicago, IL 60185, United States",41.8845167,-88.208282,4.8,52
Brother's Mufflers & Brakes,"303 Wilson Ave, West Chicago, IL 60185, United States",41.8800216,-88.2007794,4.4,38
Mavis Tires & Brakes,"3845 E Main St, St. Charles, IL 60174, United States",41.9188919,-88.2672882,4.7,921
Army Trail Tire and Service,"980 Army Trail Rd, Carol Stream, IL 60188, United States",41.939331,-88.1532669,4.3,175
Firestone Complete Auto Care,"1910 Army Trail Rd, Hanover Park, IL 60133, United States",41.9419877,-88.1532494,4.2,208
VJS Auto,"2n551 Valewood Rd, West Chicago, IL 60185, United States",41.90884,-88.2033335,3.0,8
Quick Lane at Haggerty Ford,"330 W Roosevelt Rd, West Chicago, IL 60185, United States",41.8634758,-88.2000776,4.7,11
"Blain's Farm & Fleet Tires and Auto Service Center - Romeoville, IL","451 S Weber Rd, Romeoville, IL 60446, United States",41.6089507,-88.1197076,4.4,166
Firestone Complete Auto Care,"520 S Weber Rd, Romeoville, IL 60446, United States",41.6042111,-88.1239146,4.1,238
Ideal Tire of USA Inc,"680 Phelps Ave #4, Romeoville, IL 60446, United States",41.6536389,-88.0795853,4.5,257
Bauer Built Tire & Service,"850 N Independence Blvd, Romeoville, IL 60446, United States",41.6631587,-88.0719474,4.3,75
Walmart Auto Care Centers,"420 N Weber Rd, Romeoville, IL 60446, United States",41.6075343,-88.1263504,3.3,76
La estrella towing,"15523 Weber Rd, Romeoville, IL 60446, United States",41.6019801,-88.12094,4.9,63
Orlando's Tire Shop,"2201 Plainfield Rd, Joliet, IL 60403, United States",41.56137,-88.136095,4.4,172
Specialty Auto Care Romeoville,"49 Normantown Rd, Romeoville, IL 60446, United States",41.6544636,-88.0831349,4.5,23
Meineke Car Care Center,"20712 Gaskin Dr, Romeoville, IL 60446, United States",41.6002881,-88.1204162,4.5,505
Mavis Tires & Brakes,"3350 Mall Loop Dr, Joliet, IL 60431, United States",41.5791568,-88.1653476,4.6,1159
Discount Tire,"2845 Plainfield Rd, Joliet, IL 60435, United States",41.5773185,-88.1577581,4.5,795
Jiffy Lube,"1332 Airport Rd, Romeoville, IL 60446, United States",41.6101635,-88.1249086,4.9,904
Phil's Garage,"15525 Weber Rd Suite 107, Romeoville, IL 60446, United States",41.6020199,-88.1190335,4.8,22
Mike More Miles - Romeoville,"652 N Independence Blvd, Romeoville, IL 60446, United States",41.6535069,-88.0812713,4.6,302
"Blain's Farm & Fleet - Romeoville, Illinois","451 S Weber Rd, Romeoville, IL 60446, United States",41.6088695,-88.1199897,4.5,4207
Grease Monkey,"1255 Normantown Rd, Romeoville, IL 60446, United States",41.6515688,-88.122594,4.9,432
Tire Clinic,"964 Collins St, Crest Hill, IL 60432, United States",41.5421708,-88.0721569,4.4,436
Jiffy Lube,"653 N Independence Blvd, Romeoville, IL 60446, United States",41.6539715,-88.0800458,4.4,408
Brothers Tire Shop,"701 Plainfield Rd, Joliet, IL 60435, United States",41.5364864,-88.0991503,4.3,88
Flatso's Tire Shop,"1201 N Bridge St a, Yorkville, IL 60560, United States",41.6551447,-88.4442536,4.9,265
Wholesale Tire Company,"1209 N Bridge St, Yorkville, IL 60560, United States",41.6565717,-88.4435304,4.7,22
Midas,"224 US-34, Yorkville, IL 60560, United States",41.6586557,-88.4483672,4.6,281
Jiffy Lube,"1845 Marketview Dr, Yorkville, IL 60560, United States",41.6649689,-88.4414352,3.8,294
Suburban Tire Auto Repair Center,"3412 Orchard Rd, Oswego, IL 60543, United States",41.6861413,-88.3795074,4.8,420
My Auto Dr.,"456 E Veterans Pkwy, Yorkville, IL 60560, United States",41.656679,-88.435917,4.2,85
Tire Tracks - Plano,"3955 Turner Ave, Plano, IL 60545, United States",41.661021,-88.4949995,4.8,161
Yorkville's Best Service Station Inc,"203 Morgan St, Yorkville, IL 60560, United States",41.641926,-88.451991,4.9,127
Mavis Tires & Brakes,"1971 Hill Ave, Montgomery, IL 60538, United States",41.719508,-88.2834935,4.7,1214
Pomp's Tire Service,"1996 Greenfield Rd, Montgomery, IL 60538, United States",41.7283558,-88.3641813,4.7,50
Firestone Complete Auto Care,"2121 Orchard Rd, Montgomery, IL 60538, United States",41.7173762,-88.3764291,3.9,201
Mike More Miles Montgomery,"1947 US-30, Montgomery, IL 60538, United States",41.7221484,-88.3727934,4.7,296
Strickland Brothers 10 Minute Oil Change,"1987 US-30, Montgomery, IL 60538, United States",41.7220462,-88.37403,4.9,270
"Blain's Farm & Fleet Tires and Auto Service Center - Montgomery, IL","400 US-30, Montgomery, IL 60538, United States",41.721512,-88.315055,4.4,136
Walmart Auto Care Centers,"2000 Orchard Rd, Montgomery, IL 60538, United States",41.7210603,-88.3718143,3.4,78
A & E's Tire Shop,"732 Montgomery Rd, Montgomery, IL 60538, United States",41.7315443,-88.301473,5.0,15
Tire shop Trejo,"591 Montgomery Rd, Montgomery, IL 60538, United States",41.7303988,-88.3060787,5.0,1
Frontline Autoworks,"1751 Albright Rd, Montgomery, IL 60538, United States",41.7283105,-88.3548251,4.9,61
Discount Tire,"2445 Augusta Way, Aurora, IL 60506, United States",41.789035,-88.376165,4.5,654
Herrera Tires & Wheels,"637 E Galena Blvd, Aurora, IL 60505, United States",41.7528923,-88.3019089,4.3,250
The Exhaust Works Inc,"1157 S Lake St, Montgomery, IL 60538, United States",41.7380556,-88.3425,4.8,185
Discount Tire,"230 Douglas Rd, Oswego, IL 60543, United States",41.7167596,-88.3189828,4.5,619
Maya's Tire Shop,"945 W Illinois Ave, Aurora, IL 60506, United States",41.7707349,-88.3380197,4.4,79
PQW Wheels & Tires,"225 W Galena Blvd, Aurora, IL 60506, United States",41.7603145,-88.3190461,4.4,70
Pronto Tires,"244D S River St, Aurora, IL 60506, United States",41.7540258,-88.3229273,4.8,59
"Probst Service, Inc.","300 Webster St, Montgomery, IL 60538, United States",41.7294561,-88.3434485,4.7,43
Suburban Tire Auto Repair Center,"3412 Orchard Rd, Oswego, IL 60543, United States",41.6861413,-88.3795074,4.8,420
Discount Tire,"875 S Randall Rd, Elgin, IL 60123, United States",42.0075181,-88.3341458,4.4,773
"Blain's Farm & Fleet Tires and Auto Service Center - Elgin, IL","629 S Randall Rd, Elgin, IL 60123, United States",42.0180442,-88.3347103,4.5,368
Firestone Complete Auto Care,"320 S Randall Rd, Elgin, IL 60123, United States",42.0250026,-88.3412291,3.5,207
Tornado Tire Shop,"563 N State St, Elgin, IL 60123, United States",42.0468758,-88.294024,4.6,397
Chihuahua Tire & Rims - Elgin,"533 N State St, Elgin, IL 60123, United States",42.046023,-88.293663,4.3,447
Bunge's Tire & Auto - Elgin,"826 S McLean Blvd, Elgin, IL 60123, United States",42.0125917,-88.3153065,4.7,303
Economical Tires,"345 Willard Ave, Elgin, IL 60120, United States",42.0299688,-88.2596923,4.5,250
Don Nicco tires inc.,"810 Olive St, Elgin, IL 60120, United States",42.0289645,-88.2597684,4.7,34
Tuffy Tire & Auto Service Center,"395 S Randall Rd, Elgin, IL 60123, United States",42.0237319,-88.3385858,4.4,79
Pomp's Tire Service,"216 N State St, Elgin, IL 60123, United States",42.0398784,-88.2906051,4.5,67
Don Luis Tire Shop and More LLC,"356 Willard Ave, Elgin, IL 60120, United States",42.0295208,-88.2607568,4.7,67
Pep Boys,"1020 Summit St, Elgin, IL 60120, United States",42.0477915,-88.2548845,4.3,354
Commercial Tire Services,"1799 N La Fox St, South Elgin, IL 60177, United States",42.0096648,-88.2872897,4.9,35
Car-X Tire & Auto,"175 Dundee Ave, Elgin, IL 60120, United States",42.0403297,-88.2800109,4.5,234
Grease Monkey,"225 S Randall Rd, South Elgin, IL 60177, United States",41.989106,-88.339055,4.7,280
Sam's Club Tire & Battery,"1000 Randall Rd, Elgin, IL 60123, United States",42.0052929,-88.3369428,3.4,9
Merlin Complete Auto Care,"350 S Randall Rd, Elgin, IL 60124, United States",42.0241581,-88.3398253,4.5,180
JAS Tires & Repair,"346 Willard Ave, Elgin, IL 60120, United States",42.0299271,-88.2607758,3.6,46
"Blain's Farm & Fleet - Elgin, Illinois","629 S Randall Rd, Elgin, IL 60123, United States",42.0180442,-88.3347103,4.4,3410
Leyden Tire,"2019 N Mannheim Rd, Melrose Park, IL 60160, United States",41.9151756,-87.8835758,4.5,348
Big Timers Tire Shop,"1106 N 31st Ave, Melrose Park, IL 60160, United States",41.8968294,-87.8715133,4.3,61
DF Tire Shop #2 - Melrose Park,"1504 W Lake St, Melrose Park, IL 60160, United States",41.892271,-87.852024,3.9,59
Commercial Tire Services,"1105 N 30th Ave, Melrose Park, IL 60160, United States",41.8971396,-87.8696117,4.7,187
Discount Tire,"550 W North Ave, Melrose Park, IL 60160, United States",41.9076679,-87.840758,4.6,117
Tire Zenter CO.,"2414 W Le Moyne St, Melrose Park, IL 60160, United States",41.9057801,-87.8639906,3.5,21
Pep Boys,"2600 W North Ave, Melrose Park, IL 60160, United States",41.906934,-87.867956,3.7,439
United Tires LLC,"3613 N Harlem Ave, Chicago, IL 60634, United States",41.9458541,-87.8066527,4.8,9685
Villanueva Tires,"2201 N Mannheim Rd, Melrose Park, IL 60164, United States",41.9173828,-87.8837791,3.8,4
Chicago Discount Tires,"3101 N Mannheim Rd, Franklin Park, IL 60131, United States",41.9348149,-87.8846259,3.8,173
Valles Tires Shop,"9818 Grand Ave, Franklin Park, IL 60131, United States",41.9301939,-87.8710506,4.7,184
COMMERICAL TIRE SERVICE,"3711 Lake St, Melrose Park, IL 60160, United States",41.8974813,-87.8795735,3.5,6
Cassidy Tire and Service,"7227 W North Ave, River Forest, IL 60305, United States",41.9086113,-87.8069268,4.9,1067
Hagen's Automotive,"2315 N Mannheim Rd, Melrose Park, IL 60164, United States",41.9203157,-87.8838792,4.6,129
Mavis Tires & Brakes,"2819 N Central Ave, Chicago, IL 60634, United States",41.9321649,-87.7659552,4.6,1393
Fix A Flat On Wheels,"12048 S Marshfield Ave, Calumet Park, IL 60827, United States",41.6743546,-87.66281,4.5,77
Just Tires,"6700 Cermak Rd, Berwyn, IL 60402, United States",41.850751,-87.7913071,4.1,380
Mel's Car Care Center,"4317 W Lake St, Melrose Park, IL 60160, United States",41.897961,-87.8858904,4.4,47
"Blain's Farm & Fleet Tires and Auto Service Center - Bourbonnais, IL","1811 IL-50, Bourbonnais, IL 60914, United States",41.1806245,-87.8532221,4.4,261
Discount Tire,"2074 IL-50, Bourbonnais, IL 60914, United States",41.1899816,-87.8494578,4.5,519
Walmart Auto Care Centers,"2080 IL-50, Bourbonnais, IL 60914, United States",41.1908865,-87.8460149,3.2,113
Midas,"1625 IL-50, Bourbonnais, IL 60914, United States",41.1746907,-87.8521281,4.3,107
Tire Tracks - Manteno,"7 E Division St, Manteno, IL 60950, United States",41.2487956,-87.8333652,4.6,301
Tire Tracks - Bradley,"169 E North St, Bradley, IL 60915, United States",41.1484148,-87.8596002,4.7,268
Goodyear Auto Service,"148 S Kennedy Dr, Bradley, IL 60915, United States",41.1427775,-87.8758293,4.6,189
Best-One Tire & Service of Kankakee,"1370 N Hobbie Ave, Kankakee, IL 60901, United States",41.1362154,-87.8501931,4.6,121
"Blain's Farm & Fleet - Bourbonnais, Illinois","1811 IL-50, Bourbonnais, IL 60914, United States",41.1802934,-87.8532221,4.4,3175
Levi's Garage,"554 N Convent St, Bourbonnais, IL 60914, United States",41.1639143,-87.8747809,4.1,90
Mavis Tires & Brakes,"88 Stratford Dr, Bloomingdale, IL 60108, United States",41.9518166,-88.1171322,4.8,1509
Discount Tire,"86 Stratford Dr, Bloomingdale, IL 60108, United States",41.952703,-88.1170866,4.4,598
Costco Tire Center,"505 W Army Trail Rd, Bloomingdale, IL 60108, United States",41.9408618,-88.1340374,3.9,88
Discount Tire,"1145 Bloomingdale Rd, Glendale Heights, IL 60139, United States",41.900772,-88.0814576,4.5,674
Discount Tire,"1940 N Rand Rd, Palatine, IL 60074, United States",42.1443785,-88.0282229,4.3,701
Mavis Tires & Brakes,"871 E Dundee Rd, Palatine, IL 60074, United States",42.1386104,-88.0221498,4.3,806
Firestone Complete Auto Care,"1980 N Rand Rd, Palatine, IL 60074, United States",42.1453854,-88.0292223,3.7,148
Car-X Tire & Auto,"1098 E Dundee Rd, Palatine, IL 60074, United States",42.1396428,-88.0191172,4.6,365
Just Tires,"221 W Rand Rd, Arlington Heights, IL 60004, United States",42.1160475,-87.9864379,4.4,171
El Patron Auto Service and Mufflers,"2017 N Rand Rd, Palatine, IL 60074, United States",42.1467752,-88.0292447,5.0,142
Busch Tire and Auto,"137 S Northwest Hwy, Palatine, IL 60074, United States",42.1073037,-88.0333914,4.6,103
M & Y Tire Shop,"659 W Colfax St, Palatine, IL 60067, United States",42.1181268,-88.0593392,4.6,53
Midas,"847 E Dundee Rd, Palatine, IL 60074, United States",42.1386866,-88.0228854,4.5,582
Pep Boys,"315 W Northwest Hwy, Palatine, IL 60067, United States",42.122885,-88.051669,4.0,299
Just Tires,"175 Quentin Rd, Lake Zurich, IL 60047, United States",42.1999881,-88.0586171,4.6,245
Walmart Auto Care Centers,"1555 N Rand Rd, Palatine, IL 60074, United States",42.1382114,-88.0173231,1.9,82
Palatine Mufflers & Brakes Auto Repair,"1440 N Rand Rd, Palatine, IL 60074, United States",42.1363513,-88.0190369,4.6,72
The Duke of Oil,"1755 N Rand Rd, Palatine, IL 60074, United States",42.1419639,-88.0242883,4.5,247
CTO Auto Care,"1420 N Rand Rd, Palatine, IL 60074, United States",42.1361535,-88.0188759,4.7,182
Casey Automotive,"138 N Northwest Hwy, Palatine, IL 60067, United States",42.1135221,-88.0343614,4.7,549
AutoFix,"1747 N Rand Rd, Palatine, IL 60074, United States",42.1418258,-88.0241616,4.0,58
Jiffy Lube,"866 E Dundee Rd, Palatine, IL 60067, United States",42.139455,-88.0227732,4.5,613
Aggressive Tire Co.,"659 W Colfax St, Palatine, IL 60067, United States",42.1181268,-88.0593392,5.0,6
For Less Quality Tires,"1695 IL-25, Carpentersville, IL 60110, United States",42.1393481,-88.2573757,4.5,78
Discount Tire,"2142 Randall Rd, Carpentersville, IL 60110, United States",42.118264,-88.3358878,4.6,591
Mavis Tires & Brakes,"700 Spring Hill Ring Rd, West Dundee, IL 60118, United States",42.1022335,-88.3004451,4.6,693
Firestone Complete Auto Care,"2437 Randall Rd, Carpentersville, IL 60110, United States",42.1286486,-88.334733,4.2,174
Firestone Complete Auto Care,"160 S Western Ave, Carpentersville, IL 60110, United States",42.1052372,-88.2899741,3.9,160
Cassidy Tire and Service,"208 Christina Dr, East Dundee, IL 60118, United States",42.0930564,-88.2509453,4.9,244
Midas,"20 S Western Ave, Carpentersville, IL 60110, United States",42.1072785,-88.2923958,4.2,146
Car-X Tire & Auto,"8000 Binnie Rd, Carpentersville, IL 60110, United States",42.1184817,-88.3370816,4.4,104
Mavis Tires & Brakes,"1575 S Randall Rd, Geneva, IL 60134, United States",41.8726546,-88.3396053,4.9,1472
Firestone Complete Auto Care,"351 S Randall Rd, Batavia, IL 60510, United States",41.8447625,-88.3407488,4.4,138
Tuffy Tire & Auto Service Center,"301 S Randall Rd, Batavia, IL 60510, United States",41.8450692,-88.3407441,4.5,159
Pep Boys,"837 N Randall Rd, Batavia, IL 60510, United States",41.863202,-88.3425378,4.4,111
Batavia Avenue Mobil,"27 N Batavia Ave, Batavia, IL 60510, United States",41.8508621,-88.3124659,4.7,229
Fox River Tire & Auto,"20 N 17th St, St. Charles, IL 60174, United States",41.9136496,-88.3340182,4.9,674
Ollie's Garage Inc,"709 Main St, Batavia, IL 60510, United States",41.8471365,-88.3195172,4.9,115
Batavia Auto Service,"951 W Wilson St, Batavia, IL 60510, United States",41.8500929,-88.3236405,4.9,34
Anthem Off-Road,"1300 S River St, Batavia, IL 60510, United States",41.8357745,-88.3036818,4.9,494
Merlin Complete Auto Care,"162 Independence Dr, Batavia, IL 60510, United States",41.8471047,-88.3384614,4.7,368
TIRE WHEEL EXPERTS,"902 Paramount Pkwy UNIT A, Batavia, IL 60510, United States",41.8611517,-88.2711375,5.0,13
Reliable Auto Repair,"1515 Paramount Pkwy, Batavia, IL 60510, United States",41.8678882,-88.2721601,4.9,404
"Advanced Automotive, Inc.","945 W Wilson St, Batavia, IL 60510, United States",41.8501845,-88.3233494,4.9,229
Park & Doyle Auto Repair LLC,"403 E Wilson St, Batavia, IL 60510, United States",41.8503491,-88.301016,4.8,65
Discount Tire,"2445 Augusta Way, Aurora, IL 60506, United States",41.789035,-88.376165,4.5,654
Walmart Auto Care Centers,"801 N Randall Rd, Batavia, IL 60510, United States",41.8634112,-88.3454871,3.6,76
SS TIRES,"14200 S Cicero Ave, Crestwood, IL 60418, United States",41.6340682,-87.7380761,4.3,73
Mavis Tires & Brakes,"13230 S Cicero Ave, Crestwood, IL 60418, United States",41.6513196,-87.7389239,4.6,1509
Discount Tire,"13550 S Cicero Ave, Crestwood, IL 60445, United States",41.6458959,-87.7385653,4.2,897
TIRES 4 LESS & COMPLETE AUTO REPAIR,"4351 Midlothian Turnpike, Crestwood, IL 60445, United States",41.6396566,-87.7271892,3.8,60
Custom Tire INC,"4500 W 137th St, Crestwood, IL 60418, United States",41.6438894,-87.7315224,4.8,94
Little Cyclone Tire Shop,"4700 W 137th St Unit 2b, Crestwood, IL 60418, United States",41.6440354,-87.7355109,4.5,29
Pep Boys,"13401 S Cicero Ave, Crestwood, IL 60445, United States",41.648984,-87.737347,3.8,671
T M Tire Co Inc,"4201 W Midlothian Turnpike, Crestwood, IL 60445, United States",41.6400526,-87.7236097,4.6,68
Empire Tire and Battery Co,"14357 S Cicero Ave, Midlothian, IL 60445, United States",41.630992,-87.73703,4.6,110
Midas,"14224 S Cicero Ave, Crestwood, IL 60445, United States",41.633564,-87.738203,4.5,217
Cooper Tires,"4500 W 137th St, Crestwood, IL 60445, United States",41.6438297,-87.7315334,5.0,3
"IV TIRE , TRUCK AND TRAILER REPAIR","4545 W 137th St, Crestwood, IL 60418, United States",41.643267,-87.731975,4.3,15
Meineke Car Care Center,"13845 S Cicero Ave, Crestwood, IL 60445, United States",41.6412552,-87.7371915,4.4,240
Jiffy Lube,"14007 Cicero Ave, Crestwood, IL 60445, United States",41.637785,-87.7373591,4.5,695
"Alpha Auto Repair, LLC","13604 S Cicero Ave, Crestwood, IL 60418, United States",41.6450594,-87.7389562,4.8,165
Mr Hubcap & Wheels,"13616 S Cicero Ave, Crestwood, IL 60445, United States",41.644819,-87.7387242,4.4,38
Roberts Auto Repair,"13845 S Cicero Ave, Crestwood, IL 60445, United States",41.6412977,-87.7371736,4.1,51
Rich's Place,"13902 S Cicero Ave, Crestwood, IL 60445, United States",41.640486,-87.7368268,4.9,31
JM Service,"4325 136th Ct #1904, Crestwood, IL 60418, United States",41.644026,-87.7267768,4.6,59
Paisas tire shop,"144 Easy St, Carol Stream, IL 60188, United States",41.8962079,-88.1183044,4.9,321
Firestone Complete Auto Care,"500 S Schmale Rd, Carol Stream, IL 60188, United States",41.8905195,-88.1072878,3.8,157
Army Trail Tire and Service,"980 Army Trail Rd, Carol Stream, IL 60188, United States",41.939331,-88.1532669,4.3,175
Mavis Tires & Brakes,"88 Stratford Dr, Bloomingdale, IL 60108, United States",41.9518166,-88.1171322,4.8,1509
Discount Tire,"1145 Bloomingdale Rd, Glendale Heights, IL 60139, United States",41.900772,-88.0814576,4.5,674
Discount Tire,"86 Stratford Dr, Bloomingdale, IL 60108, United States",41.952703,-88.1170866,4.4,598
Jiffy Lube,"2222 N Main St, Carol Stream, IL 60188, United States",41.8894438,-88.1072164,4.4,538
"Blain's Farm & Fleet Tires and Auto Service Center - Sycamore, IL","1300 DeKalb Ave, Sycamore, IL 60178, United States",41.9794262,-88.7059096,4.5,105
J&R AUTO REPAIR & TIRES LLC,"546 E State St, Sycamore, IL 60178, United States",41.9861794,-88.6750317,3.9,228
Jiffy Lube,"491 S Peace Rd, Sycamore, IL 60178, United States",41.9870517,-88.7093901,4.7,816
Mavis Tires & Brakes,"2430 Sycamore Rd, DeKalb, IL 60115, United States",41.9536743,-88.7234284,4.7,1537
"Bockman's Auto, Truck, and Tire of Sycamore","2158 Oakland Dr, Sycamore, IL 60178, United States",41.957306,-88.716139,4.8,524
"T & H Premium Auto Repair, LLC","1565 DeKalb Ave Suite E, Sycamore, IL 60178, United States",41.9769099,-88.7155984,4.9,24
"Think Driven, Inc","121 N Maple St, Sycamore, IL 60178, United States",41.9895629,-88.686164,4.8,107
Midas,"2820 DeKalb Ave, Sycamore, IL 60178, United States",41.9574665,-88.7206911,3.9,180
Take 5 Oil Change,"1245 DeKalb Ave, Sycamore, IL 60178, United States",41.981722,-88.706241,4.8,652
Kunes CDJR of Sycamore Service,"1825 DeKalb Ave ste A, Sycamore, IL 60178, United States",41.9701635,-88.7199426,4.7,233
Grease Monkey,"1709 DeKalb Ave, Sycamore, IL 60178, United States",41.973359,-88.7181403,4.5,276
"Blain's Farm & Fleet - Sycamore, Illinois","1300 DeKalb Ave, Sycamore, IL 60178, United States",41.9795593,-88.7056862,4.5,2188
Suburban Tire Auto Repair Centers,"424 E Lincoln Hwy, DeKalb, IL 60115, United States",41.9292591,-88.7498829,4.8,184
TLC Master Tech,"1230 E State St, Sycamore, IL 60178, United States",41.9842551,-88.660345,5.0,31
Merlin Complete Auto Care,"1812 Sycamore Rd, DeKalb, IL 60115, United States",41.9466206,-88.7322213,4.2,349
DeKalb Auto Shop,"2150 Oakland Dr suit B, Sycamore, IL 60178, United States",41.9573392,-88.7153549,4.6,25
Kunes Volvo of Sycamore Service,"1875 DeKalb Ave, Sycamore, IL 60178, United States",41.9690169,-88.7195477,4.8,34
Archer Alignment Inc.,"In the alley behind Lovells Suburban Tire, 424 1/2, E Lincoln Hwy, DeKalb, IL 60115, United States",41.928925,-88.749977,4.8,118
Kunes Mercedes-Benz of Sycamore Service Center,"1875 DeKalb Ave, Sycamore, IL 60178, United States",41.9690169,-88.7195477,5.0,24
Mavis Tires & Brakes,"2475 W Golf Rd, Hoffman Estates, IL 60169, United States",42.0460301,-88.1395206,4.6,1052
Car-One Tire & Auto,"790 Barrington Rd, Hoffman Estates, IL 60169, United States",42.0383575,-88.1451342,4.9,167
Firestone Complete Auto Care,"801 Barrington Rd, Hoffman Estates, IL 60169, United States",42.0396208,-88.1440421,3.9,253
Goodyear,"Hoffman Estates, IL 60169, United States",42.0383597,-88.1451337,4.7,24
Pep Boys,"160 Barrington Rd, Streamwood, IL 60107, United States",42.0356479,-88.1455885,4.0,508
Economical Tires,"345 Willard Ave, Elgin, IL 60120, United States",42.0299688,-88.2596923,4.5,250
Abby Automotive,"1300 W Higgins Rd, Hoffman Estates, IL 60169, United States",42.0529458,-88.1110084,4.9,201
Hankook Tire America Corporation,"2300 Barrington Rd, Hoffman Estates, IL 60169, United States",42.063797,-88.1457025,3.0,1
Mavis Tires & Brakes,"326 Center Dr, Vernon Hills, IL 60061, United States",42.2441956,-87.9544482,4.4,860
Duxler Libertyville Tire,"902 S Milwaukee Ave, Libertyville, IL 60048, United States",42.2725704,-87.9501706,4.9,761
Jiffy Lube,"840 S Milwaukee Ave, Vernon Hills, IL 60061, United States",42.2107511,-87.935066,4.4,245
Sam's Club Tire & Battery,"335 N Milwaukee Ave, Vernon Hills, IL 60061, United States",42.2319969,-87.9391623,3.0,8
Berry Tire & Auto,"1001 N Milwaukee Ave, Libertyville, IL 60048, United States",42.2937692,-87.9561783,4.7,179
Quick Lane Libertyville,"941 S Milwaukee Ave, Libertyville, IL 60048, United States",42.2698951,-87.9518589,4.8,85
Car Fix Libertyville,"311 S Milwaukee Ave, Libertyville, IL 60048, United States",42.2804096,-87.9532224,4.7,278
Mundelein Tire & Service,"900 N Lake St Ste 104, Mundelein, IL 60060, United States",42.2762695,-88.0043607,4.8,297
Star Auto Authority,"600 Lakeview Pkwy, Vernon Hills, IL 60061, United States",42.2360968,-87.9508421,4.7,413
Cornerstone Tire & Auto,"939 E Park Ave, Libertyville, IL 60048, United States",42.2814923,-87.9386822,4.6,64
Sunset Tire & Auto Repair,"13 Skokie Valley Rd, Lake Bluff, IL 60044, United States",42.2806396,-87.8684781,4.9,493
Colonial Goodyear Tire and Auto Repair Services,"25762 IL-83, Mundelein, IL 60060, United States",42.2363936,-87.9954024,4.6,113
AAA Vernon Hills Car Care Plus,"1680 N Milwaukee Ave, Vernon Hills, IL 60061, United States",42.2561994,-87.9485264,4.0,257
Midas,"7109 North Route 83 Mundelein (Village, Of, Long Grove, IL 60060, United States",42.2352028,-87.9946564,4.3,236
Car-X Tire & Auto,"25758 IL-83, Mundelein, IL 60060, United States",42.2361129,-87.9954284,4.0,79
Auto Lab,"400 S Milwaukee Ave, Libertyville, IL 60048, United States",42.2795903,-87.9522698,4.9,323
Costco Tire Service Center,"25901 Riverwoods Rd, Mettawa, IL 60045, United States",42.2375934,-87.9031642,3.9,42
Top Notch Tire Plus,"530 E Park Ave, Libertyville, IL 60048, United States",42.2826526,-87.9467178,4.6,29
Discount Tire,"230 Douglas Rd, Oswego, IL 60543, United States",41.7167596,-88.3189828,4.5,619
ADN Tire Shop,"1100C US-34 C, Oswego, IL 60543, United States",41.7164116,-88.2831108,5.0,4
Firestone Complete Auto Care,"2610 Walter Payton Memorial Hwy, Oswego, IL 60543, United States",41.7012825,-88.3107777,3.6,168
Tuffy Tire & Auto Service Center,"1555 US-34, Oswego, IL 60543, United States",41.7134094,-88.2918014,4.1,204
Walmart Auto Care Centers,"2300 US-34, Oswego, IL 60543, United States",41.7036618,-88.302364,3.1,38
Suburban Tire Auto Repair Center,"3412 Orchard Rd, Oswego, IL 60543, United States",41.6861413,-88.3795074,4.8,420
Mavis Tires & Brakes,"1971 Hill Ave, Montgomery, IL 60538, United States",41.719508,-88.2834935,4.7,1214
A & E's Tire Shop,"732 Montgomery Rd, Montgomery, IL 60538, United States",41.7315443,-88.301473,5.0,15
Mike More Miles,"2771 US-34, Oswego, IL 60543, United States",41.7010613,-88.3147245,4.9,487
Bartel's Auto Clinic,"2015 Wiesbrook Dr, Oswego, IL 60543, United States",41.719005,-88.3095726,4.5,724
Keith's Car Care,"78 Stone Hill Rd, Oswego, IL 60543, United States",41.6725955,-88.3361186,4.8,259
Tire shop Trejo,"591 Montgomery Rd, Montgomery, IL 60538, United States",41.7303988,-88.3060787,5.0,1
"Blain's Farm & Fleet Tires and Auto Service Center - Montgomery, IL","400 US-30, Montgomery, IL 60538, United States",41.721512,-88.315055,4.4,136
Firestone Complete Auto Care,"2121 Orchard Rd, Montgomery, IL 60538, United States",41.7173762,-88.3764291,3.9,201
Louie Tire Service Inc,"5730 W 120th St, Alsip, IL 60803, United States",41.6754649,-87.7628505,4.6,344
Wentworth Tire Service of Worth,"6465 W 111th St, Worth, IL 60482, United States",41.6897657,-87.7807282,4.9,230
Mavis Tires & Brakes,"13230 S Cicero Ave, Crestwood, IL 60418, United States",41.6513196,-87.7389239,4.6,1509
Tire Discount 2 LLC,"5451 W 110th St #2, Oak Lawn, IL 60453, United States",41.69188,-87.7558826,4.9,38
Mavis Tires & Brakes,"4453 SW Hwy, Oak Lawn, IL 60453, United States",41.7269231,-87.7320072,4.3,1442
Discount Tire,"6635 W 95th St, Oak Lawn, IL 60453, United States",41.7191324,-87.7866715,4.3,1127
Lopez Tires,"12401 Vincennes Rd, Blue Island, IL 60406, United States",41.6681801,-87.6754937,4.5,245
Discount Tire,"13550 S Cicero Ave, Crestwood, IL 60445, United States",41.6458959,-87.7385653,4.2,897
The Tire Shop,"5530 W 110th St #3, Oak Lawn, IL 60453, United States",41.6926802,-87.75741,3.9,19
OFFICIAL TIRE & RIMS,"9201 S Keating Ave, Oak Lawn, IL 60453, United States",41.7254412,-87.7396414,4.4,240
Car-X Tire & Auto,"10701 S Cicero Ave, Oak Lawn, IL 60453, United States",41.6978886,-87.7396296,4.8,713
Guerrero Tire Shop,"2801 W 87th St, Evergreen Park, IL 60805, United States",41.7350251,-87.6927814,4.7,84
Custom Tire INC,"4500 W 137th St, Crestwood, IL 60418, United States",41.6438894,-87.7315224,4.8,94
Just Tires,"8640 S Cicero Ave, Burbank, IL 60459, United States",41.7352014,-87.741557,4.2,410
Wentworth Tire Service of Calumet Park,"1529 W 127th St, Calumet Park, IL 60827, United States",41.6627718,-87.6595239,4.7,241
Midas,"11009 S Cicero Ave, Oak Lawn, IL 60453, United States",41.6923199,-87.7393812,4.2,177
Metro Service Industrial Tire,"4825 W 128th Place, Alsip, IL 60803, United States",41.658214,-87.740053,4.0,1
TIRES 4 LESS & COMPLETE AUTO REPAIR,"4351 Midlothian Turnpike, Crestwood, IL 60445, United States",41.6396566,-87.7271892,3.8,60
SS TIRES,"14200 S Cicero Ave, Crestwood, IL 60418, United States",41.6340682,-87.7380761,4.3,73
Firestone Complete Auto Care,"11902 Illinois Rte 59, Plainfield, IL 60585, United States",41.6652496,-88.2048444,3.8,195
Quicklane Tire and Auto Center,"13601 Illinois Rte 59, Plainfield, IL 60544, United States",41.6354332,-88.2023397,4.0,284
Tuffy Tire & Auto Service Center,"23846 W 135th St, Plainfield, IL 60544, United States",41.6375525,-88.2000009,4.3,217
Discount Tire,"4803 Illinois Rte 59, Naperville, IL 60564, United States",41.6832147,-88.2054837,4.4,438
Tuffy Tire & Auto Service Center,"2031 Illinois Rte 59, Plainfield, IL 60586, United States",41.5593589,-88.2008452,4.7,235
59 Auto Repair,"24010 W Renwick Rd, Plainfield, IL 60544, United States",41.5951103,-88.2028668,4.6,315
Jiffy Lube,"2021 Illinois Rte 59, Plainfield, IL 60544, United States",41.559041,-88.2007605,3.9,313
Discount Tire,"2341 W Algonquin Rd Ste A, Algonquin, IL 60102, United States",42.175055,-88.331246,4.4,661
Walmart Auto Care Centers,"1410 S Randall Rd, Algonquin, IL 60102, United States",42.1543797,-88.3400709,3.6,105
Firestone Complete Auto Care,"2255 W Algonquin Rd, Lake in the Hills, IL 60156, United States",42.1749708,-88.3293589,3.7,171
Queens Auto Services,"2401 E Algonquin Rd, Algonquin, IL 60102, United States",42.150482,-88.2572252,4.3,162
Discount Tire,"2142 Randall Rd, Carpentersville, IL 60110, United States",42.118264,-88.3358878,4.6,591
Firestone Complete Auto Care,"2437 Randall Rd, Carpentersville, IL 60110, United States",42.1286486,-88.334733,4.2,174
Algonquin Auto Clinic - Algonquin Illinois,"2033 E Algonquin Rd, Algonquin, IL 60102, United States",42.1558783,-88.2672188,4.8,123
For Less Quality Tires,"1695 IL-25, Carpentersville, IL 60110, United States",42.1393481,-88.2573757,4.5,78
Queens Mobile Tires,"2401 E Algonquin Rd, Lake in the Hills, IL 60102, United States",42.150511,-88.2571408,4.2,10
Mastertek Auto Repair,"10216 S Illinois Rte 31, Algonquin, IL 60102, United States",42.1806439,-88.2859419,4.9,136
Rob's Complete Auto Repair,"1080 W Algonquin Rd, Algonquin, IL 60156, United States",42.1766586,-88.3052541,4.8,117
Costco Tire Center,"250 N Randall Rd, Lake in the Hills, IL 60156, United States",42.1790807,-88.3389057,3.9,40
Jiffy Lube,"2361 W Algonquin Rd, Algonquin, IL 60102, United States",42.1751802,-88.3319126,4.7,817
Mavis Tires & Brakes,"5201 Northwest Hwy, Crystal Lake, IL 60014, United States",42.2255679,-88.2987043,4.6,852
Cassidy Tire and Service,"5505 Northwest Hwy, Crystal Lake, IL 60014, United States",42.225768,-88.3049876,4.9,923
Firestone Complete Auto Care,"6325 Northwest Hwy, Crystal Lake, IL 60014, United States",42.2256857,-88.3218404,4.1,185
Auto Tech Centers - Crystal Lake,"350 W Virginia St, Crystal Lake, IL 60014, United States",42.2322114,-88.3338507,4.8,225
Xpress Tires,"3989 Northwest Hwy, Crystal Lake, IL 60014, United States",42.2256576,-88.2764185,4.9,15
Jax Auto & Tire,"5220 S Illinois Rte 31, Crystal Lake, IL 60012, United States",42.2530195,-88.2861469,4.9,303
Car-X Tire & Auto,"393 W Virginia St, Crystal Lake, IL 60014, United States",42.2329146,-88.3354207,4.6,267
Midas,"260 W Virginia St, Crystal Lake, IL 60014, United States",42.2297632,-88.3306342,4.6,360
Jiffy Lube,"6205 Northwest Hwy, Crystal Lake, IL 60014, United States",42.2258638,-88.3179818,4.6,427
Top Notch Automotive,"930 Pyott Rd #101, Crystal Lake, IL 60014, United States",42.2156042,-88.3177377,4.9,681
Car-One Tire & Auto of Cary Inc,"536 Northwest Hwy, Cary, IL 60013, United States",42.2165814,-88.2539897,4.9,128
Discount Tire,"2341 W Algonquin Rd Ste A, Algonquin, IL 60102, United States",42.175055,-88.331246,4.4,661
Cary Tire & Auto Center,"112 Crystal St, Cary, IL 60013, United States",42.2097382,-88.2412146,4.9,77
Douglas Auto � Crystal Lake,"123 S Virginia Rd, Crystal Lake, IL 60014, United States",42.2151044,-88.3153024,4.8,553
Good Year,"Crystal Lake, IL 60014, United States",42.2320379,-88.3336413,4.0,34
Auto Authority,"765 Duffy Dr unit f, Crystal Lake, IL 60014, United States",42.2122726,-88.2946701,4.8,91
El Patron Auto Service,"4410 Northwest Hwy #6526, Crystal Lake, IL 60014, United States",42.2254503,-88.2830987,4.7,117
The Shop Incorporated,"90 East St, Crystal Lake, IL 60014, United States",42.2436881,-88.3120287,4.7,69
Quality Mufflers & Brakes,"3949 US-14, Crystal Lake, IL 60014, United States",42.224939,-88.275709,4.8,162
Mavis Tires & Brakes,"20728 S Cicero Ave, Matteson, IL 60443, United States",41.5119828,-87.7332102,4.4,1185
Discount Tire,"20804 Cicero Ave, Matteson, IL 60443, United States",41.5114247,-87.7330937,4.1,701
Pep Boys,"21610 Cicero Ave, Matteson, IL 60443, United States",41.497453,-87.735526,3.9,535
Firestone Complete Auto Care,"4646 Lincoln Hwy, Matteson, IL 60443, United States",41.5067214,-87.729574,4.0,328
Jiffy Lube,"20602 Cicero Ave, Matteson, IL 60443, United States",41.5150401,-87.7334005,4.3,575
Custom Wheels,"4253 211th St, Matteson, IL 60443, United States",41.5057508,-87.7191189,5.0,3
Amigo's Tire and Repair inc.,"2417 Chicago Rd, Chicago Heights, IL 60411, United States",41.4926049,-87.6388069,4.6,481
Hoot Heavy Duty Trucks Repair Oil&Tire Express,"5501 Adams St Unit B, Matteson, IL 60443, United States",41.4963889,-87.7453967,5.0,11
Ware Auto Repair LLC,"21750 Main St Unit 15, Matteson, IL 60443, United States",41.4917434,-87.7042494,4.3,40
T & T Auto Care,"21750 Main St # 30, Matteson, IL 60443, United States",41.4928953,-87.7044069,4.8,117
Emil's Tires,"22414 Central Ave, Matteson, IL 60443, United States",41.4796366,-87.7519356,4.7,33
Supreme Towing And Tires Inc,"816 S Halsted St, Chicago Heights, IL 60411, United States",41.5162441,-87.6359616,4.5,112
Quick Lane at Sutton Ford,"21315 Central Ave, Matteson, IL 60443, United States",41.5032231,-87.7500468,4.3,62
"7 DAYS QUICK LUBE, inc. VALVOLINE FAMILY OWNED & OPERATED","4847 183rd St, Country Club Hills, IL 60478, United States",41.5567464,-87.7342388,4.7,167
Mahler's Service Inc,"3627 216th St, Matteson, IL 60443, United States",41.4972468,-87.7048297,4.5,104
Claudia's Tire & Repair Shop,"630 Chicago Rd, Chicago Heights, IL 60411, United States",41.5200637,-87.6443735,4.1,103
A & G Auto Repair and Tire Shop,"630 Chicago Rd, Chicago Heights, IL 60411, United States",41.5200059,-87.6445213,4.7,41
Prestigious Auto Spa,"22650 Governors Hwy, Matteson, IL 60443, United States",41.4762676,-87.7153662,5.0,89
Convoy Truck Repair and Road Service,"5501 Adams St Unit K, Matteson, IL 60443, United States",41.4962076,-87.7471124,5.0,29
